{"type": "FeatureCollection", "features": [{"type": "Feature", "properties": {"name": "Biblioth\u00e8que d'Ennezat", "description": "Ennezat - rue des Tilleuls\n\n04-63-85-83-60\n\nbib.ennezat@rlv.eu\n\n[[http://rlv-ennezat.reseaubibli.org/|En savoir +]]\n\nMercredi de 14h30 \u00e0 16h30\nSamedi de 14h30 \u00e0 16h30\n", "selected": true}, "geometry": {"type": "Point", "coordinates": [3.224949, 45.898763]}}, {"type": "Feature", "properties": {"name": "Biblioth\u00e8que d'Entraigues", "description": "Entraigues - place de la mairie\n\n04-63-85-83-62 \n\nbib.entraigues@rlv.eu\n\nMardi de 16h30 \u00e0 18h30\nJeudi de 17h30 \u00e0 19h30\n\n[[https://reseaubibliotheques.rlv.eu/bibliotheques-de-rlv/1241-entraigues|En savoir +]]", "selected": true}, "geometry": {"type": "Point", "coordinates": [3.261566, 45.889769]}}, {"type": "Feature", "properties": {"name": "Biblioth\u00e8que d'Enval", "description": "Enval - 6 rue des \u00e9coles\n04 73 38 59 58\nbib.enval@rlv.eu\t\n\nLundi 15 h 30 - 18 h 30\n1er et 3eme jeudi du mois pour les b\u00e9b\u00e9s de 10 h \u00e0 11 h 30\nVendredi de 15 h 30 \u00e0 18 h\nLe dernier samedi de chaque mois de 10 h \u00e0 12 h\n\n[[https://reseaubibliotheques.rlv.eu/bibliotheques-de-rlv/1250-enval|En savoir +]]", "selected": true}, "geometry": {"type": "Point", "coordinates": [3.050294, 45.899073]}}, {"type": "Feature", "properties": {"name": "Biblioth\u00e8que de Cellule", "description": "Cellule - Rue de la Cure\tmardi de 16h30 \u00e0 19h00\n\n[[https://reseaubibliotheques.rlv.eu/bibliotheques-de-rlv/1256-cellule|En savoir +]]\n", "selected": false}, "geometry": {"type": "Point", "coordinates": [3.141618, 45.947476]}}, {"type": "Feature", "properties": {"name": "Biblioth\u00e8que de Chappes", "description": "Chappes- route d\u2019Ennezat\n\n04-63-85-83-59\n\nbib.chappes@rlv.eu\n\nmardi de 17h \u00e0 18h30\nmercredi de 16h \u00e0 19h\njeudi de 16h \u00e0 19h\nsamedi de 9h30 \u00e0 12h\n\n[[https://reseaubibliotheques.rlv.eu/bibliotheques-de-rlv/1237-chappes|En savoir +]]\n", "selected": true}, "geometry": {"type": "Point", "coordinates": [3.221397, 45.870888]}}, {"type": "Feature", "properties": {"name": "Biblioth\u00e8que de Charbonni\u00e8re les Varennes", "description": "Charbonni\u00e8res les Varennes \u2013\nRue de la Such\u00e8re\n\nTel. 04 73 66 32 74\nbib.charbonnieres@rlv.eu\n\nMardi de 16h \u00e0 18h\nJeudi de 16h \u00e0 18h\nSamedi de 10h \u00e0 12h\n\n[[https://reseaubibliotheques.rlv.eu/bibliotheques-de-rlv/1258-charbonnieres-les-varennes|En savoir +]]", "selected": true}, "geometry": {"type": "Point", "coordinates": [2.998211, 45.908015]}}, {"type": "Feature", "properties": {"name": "Biblioth\u00e8que de Ch\u00e2tel-Guyon", "description": "Chatel Guyon - Centre de la Mouniaude\nAvenue de l'Europe\n\n04.73.86.12.46\n\nbibliothequechatelguyon@orange.fr\n\n[[https://bibliothequechatelguyon.webnode.fr/|En savoir +]]\n\n\nDu Lundi au Vendredi de 16h \u00e0 18h30\nSamedi de 10h \u00e0 12h\nDimanche (novembre \u00e0 fin mars de 15h \u00e0 17h30)\n", "selected": true}, "geometry": {"type": "Point", "coordinates": [3.074729, 45.918669]}}, {"type": "Feature", "properties": {"name": "Biblioth\u00e8que de Chavaroux", "description": "Chavaroux -place de l'\u00e9glise\n\n04-63-85-83-64\n\nbib.chavaroux@rlv.eu\n\nMercredi et vendredi 16h30 \u00e0 18h30\n\n[[https://reseaubibliotheques.rlv.eu/bibliotheques-de-rlv/1238-chavaroux|En savoir +]]\n", "selected": false}, "geometry": {"type": "Point", "coordinates": [3.260145, 45.851278]}}, {"type": "Feature", "properties": {"name": "Biblioth\u00e8que de Clerlande", "description": "Clerlande - place Saint Amable \n\n04-63-85-83-58\n\nbib.clerlande@rlv.eu\n\nmardi de 17h-19h\njeudi de 17h30-19h\nsamedi de 10h30-12h\n\n[[https://reseaubibliotheques.rlv.eu/bibliotheques-de-rlv/1239-clerlande|En savoir +]]", "selected": true}, "geometry": {"type": "Point", "coordinates": [3.191072, 45.917706]}}, {"type": "Feature", "properties": {"name": "Biblioth\u00e8que de La Moutade", "description": "La Moutade \u2013 b\u00e2timent communal Les Ecuries, 5 place de l\u2019\u00e9glise\n\n04 73 97 61 78\nbib.lamoutade@rlv.eu\t\n\n[[https://reseaubibliotheques.rlv.eu/bibliotheques-de-rlv/1252-la-moutade|En savoir +]]\n\nlundi de 17h30 \u00e0 19h\nmercredi de 17h30 \u00e0 19h\n", "selected": false}, "geometry": {"type": "Point", "coordinates": [3.15991, 45.96599]}}, {"type": "Feature", "properties": {"name": "Biblioth\u00e8que de Lussat", "description": "Attention : pas de permanence le 23 juin, exceptionnellement\n\nLussat - place de la Fontaine\n\n04-63-79-84-69\nbib.lussat@rlv.eu\n\nFerm\u00e9e pendant les vacances de f\u00e9vrier\n\nmardi de 16h30 \u00e0 18h\nmercredi de 16h30 \u00e0 19h\n\n[[https://reseaubibliotheques.rlv.eu/bibliotheques-de-rlv/1242-lussat|En savoir +]]", "selected": false}, "geometry": {"type": "Point", "coordinates": [3.215341, 45.839093]}}, {"type": "Feature", "properties": {"name": "Biblioth\u00e8que de Malintrat", "description": "18 rue de l\u2019H\u00f4tel de ville 63510 MALINTRAT\n\n04-63-79-84-70\n\nbib.malintrat@rlv.eu\n\n[[https://reseaubibliotheques.rlv.eu/bibliotheques-de-rlv/1243-malintrat|En savoir +]]\n\nMercredi 15h / 18h \nJeudi 15h / 18h\nVendredi 15h/18h\nSamedi 10h / 12h\n\n", "selected": true}, "geometry": {"type": "Point", "coordinates": [3.18721, 45.815838]}}, {"type": "Feature", "properties": {"name": "Biblioth\u00e8que de Marsat", "description": "Marsat - 10 rue du Coudet\n\n04 73 33 12 86\nbib.marsat@rlv.eu\t\n\nMercredi 16H - 18 H\nJeudi 16H - 18H\nSamedi 9H30 - 11H\n\n[[https://reseaubibliotheques.rlv.eu/bibliotheques-de-rlv/1255-marsat|En savoir +]]", "selected": false}, "geometry": {"type": "Point", "coordinates": [3.080139, 45.876272]}}, {"type": "Feature", "properties": {"name": "Biblioth\u00e8que de M\u00e9n\u00e9trol", "description": "M\u00e9n\u00e9trol - place du 1er mai\n\n04 73 64 84 65\nbib.menetrol@rlv.eu\n\nNous vous informons que la biblioth\u00e8que de M\u00e9n\u00e9trol sera ferm\u00e9e le Vendredi 14 mai 2021.\n\nR\u00e9ouverture le mercredi 19 mai 2021.\t\n\nmercredi de 15h30 \u00e0 18h\nvendredi de 16h \u00e0 18h\n\n[[https://reseaubibliotheques.rlv.eu/bibliotheques-de-rlv/1251-menetrol|En savoir +]]\n", "selected": true}, "geometry": {"type": "Point", "coordinates": [3.124924, 45.8728]}}, {"type": "Feature", "properties": {"name": "Biblioth\u00e8que de Mozac", "description": "Mozac - maison des associations, all\u00e9e des peupliers\n\n04 73 38 36 75\nbib.mozac@rlv.eu\t\n\nlundi de 16h30 \u00e0 18h30\nmercredi de 14h30 \u00e0 17h30\n\n[[https://reseaubibliotheques.rlv.eu/bibliotheques-de-rlv/1253-mozac|En savoir +]]", "selected": true}, "geometry": {"type": "Point", "coordinates": [3.093545, 45.886786]}}, {"type": "Feature", "properties": {"name": "Biblioth\u00e8que de Saint Beauzire", "description": "Saint-Beauzire- place de la Mairie\n\n04-63-85-83-63\n\nbib.stbeauzire@rlv.eu\n\nLundi : 15 h 00 \u00e0 18 h 00\nMardi : 10 h \u00e0 12 h et 13 h 30 \u00e0 16 h 00\nMercredi : 10 h 30 \u00e0 12 h 00 et 14 h 00 \u00e0 18 h 30\nJeudi : 13 h 30 \u00e0 16 h 00\nVendredi : 16h 00 \u00e0 18 h 00\nSamedi : 10 h 00 \u00e0 12 h 00 (suivant ouverture mairie)\n\n\n[[https://reseaubibliotheques.rlv.eu/bibliotheques-de-rlv/1246-saint-beauzire|En savoir +]]\n", "selected": true}, "geometry": {"type": "Point", "coordinates": [3.18118, 45.851521]}}, {"type": "Feature", "properties": {"name": "Biblioth\u00e8que de Saint Ours les Roches", "description": "Saint-Ours \u2013 rue de la Mairie\n\n04 63 79 47 11\nbib.stours@rlv.eu\n\n[[https://reseaubibliotheques.rlv.eu/bibliotheques-de-rlv/1259-saint-ours-les-roches|En savoir +]]\n\nLundi de 9h \u00e0 12h\nJeudi de 14h \u00e0 18h \nVendredi de 14h \u00e0 16h30\nSamedi de 10h \u00e0 12h (1er samedi du mois)\n", "selected": true}, "geometry": {"type": "Point", "coordinates": [2.893556, 45.848906]}}, {"type": "Feature", "properties": {"name": "Biblioth\u00e8que de Saint-Bonnet-pr\u00e8s-Riom", "description": "Saint-Bonnet-pr\u00e8s-Riom - nouvelle adresse : 10 rue de Riom\n\n04 73 97 06 74\nbib.stbonnet@rlv.eu\t\n\nmardi de 16h30 \u00e0 18h\nmercredi de 17h \u00e0 18h30 \nsamedi de 10h30 \u00e0 12h\n\n[[https://reseaubibliotheques.rlv.eu/bibliotheques-de-rlv/1257-saint-bonnet-pres-riom|En savoir +]]", "selected": true}, "geometry": {"type": "Point", "coordinates": [3.111934, 45.928308]}}, {"type": "Feature", "properties": {"name": "Biblioth\u00e8que de Saint-Laure", "description": "14 bis rue des marronniers\n\nAcc\u00e8s internet gratuit\n\nT\u00e9l\u00e9phone : 04-63-85-83-65\n\n[[https://reseaubibliotheques.rlv.eu/bibliotheques-de-rlv/1248-ure|En savoir +]]\n\nbib.stlaure@rlv.eu\n\nMercredi de 15h30 \u00e0 17h30\n\nSamedi de 10h00 \u00e0 12h00 \n", "selected": false}, "geometry": {"type": "Point", "coordinates": [3.292221, 45.900779]}}, {"type": "Feature", "properties": {"description": "Sayat \u2013 rue de la Mairie\n\n04 73 60 07 56\nbib.sayat@rlv.eu\n\n[[https://reseaubibliotheques.rlv.eu/bibliotheques-de-rlv/1262-sayat|En savoir +]]\n\nMercredi de 14h \u00e0 18h\nJeudi de 16h \u00e0 18h30\nVendredi de 16h \u00e0 18h30\nSamedi de 9h \u00e0 12h30\n", "name": "Biblioth\u00e8que de Sayat", "selected": true}, "geometry": {"type": "Point", "coordinates": [3.052515, 45.827057]}}, {"type": "Feature", "properties": {"name": "Biblioth\u00e8que de Surat", "description": "Surat - 3 rue de la R\u00e9publique\n\n04-63-85-83-66\n\nbib.surat@rlv.eu\n\n[[https://reseaubibliotheques.rlv.eu/bibliotheques-de-rlv/1249-surat|En savoir +]]\n\nLundi de 16h30 \u00e0 18h30\nmercredi de 17h \u00e0 19h\n\n", "selected": false}, "geometry": {"type": "Point", "coordinates": [3.253284, 45.93768]}}, {"type": "Feature", "properties": {"name": "Biblioth\u00e8que de Volvic", "description": "Volvic \u2013 2 rue des Ecoles\n\n04 73 33 80 17\nmediatheque@ville-volvic.fr\n\n[[http://volvic-pom.c3rb.org/|En savoir +]]\n\n\nLundi de 14h \u00e0 17h\nMercredi de 9h \u00e0 12h et de 14h \u00e0 18h\nVendredi de 9h \u00e0 12h\nSamedi de 9h \u00e0 12h et de 14h \u00e0 17h  \n", "selected": true}, "geometry": {"type": "Point", "coordinates": [3.039351, 45.872725]}}, {"type": "Feature", "properties": {"name": "Biblioth\u00e8que Le Cheix-Sur-Morge", "description": "Le Cheix-sur-Morge - place de l\u2019\u00e9glise\n\n04 73 97 21 90\t\n\nlundi de 17h \u00e0 19h\njeudi de 17h \u00e0 18h30\n\n[[https://reseaubibliotheques.rlv.eu/bibliotheques-de-rlv/1254-le-cheix-sur-morge|En savoir +]]\n", "selected": true}, "geometry": {"type": "Point", "coordinates": [3.171492, 45.955342]}}, {"type": "Feature", "properties": {"name": "Biblioth\u00e8que Les Martres d'Arti\u00e8re", "description": "Les Martres d'Arti\u00e8re - 13 rue du creux des mets \n\n04-63-79-84-68\n\nbib.martresartiere@rlv.eu\n\nmercredi de 13h30 \u00e0 19h\njeudi de 17h \u00e0 19h\nvendredi de 16h \u00e0 19h\nsamedi de 10h \u00e0 12h\n\n[[https://reseaubibliotheques.rlv.eu/nouveautes-martre-d-artieres?s_1161=020|Voir toutes les nouveaut\u00e9s de cette m\u00e9diath\u00e8que]]\n\n[[https://reseaubibliotheques.rlv.eu/bibliotheques-de-rlv/1244-les-martres-d-artiere|En savoir +]]", "selected": true}, "geometry": {"type": "Point", "coordinates": [3.260617, 45.833169]}}, {"type": "Feature", "properties": {"name": "Biblioth\u00e8que Martres sur Morge", "description": "Les Martres sur Morge - rue des Contamines\n\n04-63-85-83-61\n\nbib.martressurmorge@rlv.eu\n\nlundi de 15h30 \u00e0 18h30\nmercredi de 17h \u00e0 19h\n\n[[https://reseaubibliotheques.rlv.eu/bibliotheques-de-rlv/1245-les-martres-sur-morge|En savoir +]]", "selected": true}, "geometry": {"type": "Point", "coordinates": [3.222583, 45.935363]}}, {"type": "Feature", "properties": {"name": "Bibloth\u00e8que de Saint-Ignat", "description": "Saint-Ignat - place de la mairie\n\n04-63-85-83-57\n\nbib.stignat@rlv.eu\n\nMercredi de 16h30 \u00e0 18h30\n\nVendredi de 16h30 \u00e0 18h30\n\n[[https://reseaubibliotheques.rlv.eu/bibliotheques-de-rlv/1247-saint-ignat|En savoir +]]", "selected": true}, "geometry": {"type": "Point", "coordinates": [3.272552, 45.922259]}}, {"type": "Feature", "properties": {"name": "M\u00e9diath\u00e8que des Jardins de la Culture", "description": "2 ter Faubourg de la Bade - 63200 RIOM\n\ntel. 04 73 64 63 00\n\nMardi : de 14 h \u00e0 20 h\nMercredi : de 10 h \u00e0 18 h 30\nJeudi : de 14 h \u00e0 18 h 30\nVendredi : de 14 h \u00e0 18 h 30\nSamedi : de 10 h \u00e0 18 h 30\n\nLes horaires d'\u00e9t\u00e9, du 1er juillet au 31 ao\u00fbt :\n\nMercredi : de 10 h \u00e0 13 h et de 14 h \u00e0 18 h 30\nJeudi : de 14 h \u00e0 18 h 30\nVendredi : de 14 h \u00e0 18 h 30\nSamedi : de 10 h \u00e0 13 h", "selected": true}, "geometry": {"type": "Point", "coordinates": [3.119559, 45.895056]}}]}